[{"name": "The Perch", "ReviewCount": 358, "Categories": [{"alias": "breweries", "title": "Breweries"}, {"alias": "newamerican", "title": "American (New)"}], "Rating": 4.5, "Lat": 41.90348, "Long": -87.676221, "Address": "1932 W Division", "City": "Chicago", "Location": {"address1": "1932 W Division", "address2": null, "address3": "", "city": "Chicago", "zip_code": "60622", "country": "US", "state": "IL", "display_address": ["1932 W Division", "Chicago, IL 60622"]}, "Phone": "", "url": "https://www.yelp.com/biz/the-perch-chicago?adjust_creative=9wzLCQb4DKw6lnyMeALrVw&utm_campaign=yelp_api_v3&utm_medium=api_v3_business_search&utm_source=9wzLCQb4DKw6lnyMeALrVw"}, {"name": "The Dearborn", "ReviewCount": 1887, "Categories": [{"alias": "seafood", "title": "Seafood"}, {"alias": "tradamerican", "title": "American (Traditional)"}, {"alias": "breakfast_brunch", "title": "Breakfast & Brunch"}], "Rating": 4.5, "Lat": 41.8842528, "Long": -87.6293151, "Address": "145 N Dearborn St", "City": "Chicago", "Location": {"address1": "145 N Dearborn St", "address2": "", "address3": null, "city": "Chicago", "zip_code": "60602", "country": "US", "state": "IL", "display_address": ["145 N Dearborn St", "Chicago, IL 60602"]}, "Phone": "+13123841242", "url": "https://www.yelp.com/biz/the-dearborn-chicago-2?adjust_creative=9wzLCQb4DKw6lnyMeALrVw&utm_campaign=yelp_api_v3&utm_medium=api_v3_business_search&utm_source=9wzLCQb4DKw6lnyMeALrVw"}, {"name": "Yardbird", "ReviewCount": 32, "Categories": [{"alias": "newamerican", "title": "American (New)"}, {"alias": "southern", "title": "Southern"}, {"alias": "cocktailbars", "title": "Cocktail Bars"}], "Rating": 3.0, "Lat": 41.89178, "Long": -87.62683, "Address": "530 N Wabash Ave", "City": "Chicago", "Location": {"address1": "530 N Wabash Ave", "address2": null, "address3": "", "city": "Chicago", "zip_code": "60654", "country": "US", "state": "IL", "display_address": ["530 N Wabash Ave", "Chicago, IL 60654"]}, "Phone": "+13129999760", "url": "https://www.yelp.com/biz/yardbird-chicago?adjust_creative=9wzLCQb4DKw6lnyMeALrVw&utm_campaign=yelp_api_v3&utm_medium=api_v3_business_search&utm_source=9wzLCQb4DKw6lnyMeALrVw"}, {"name": "Forbidden Root", "ReviewCount": 553, "Categories": [{"alias": "brewpubs", "title": "Brewpubs"}, {"alias": "tapasmallplates", "title": "Tapas/Small Plates"}, {"alias": "cocktailbars", "title": "Cocktail Bars"}], "Rating": 4.5, "Lat": 41.89628, "Long": -87.671551, "Address": "1746 W Chicago Ave", "City": "Chicago", "Location": {"address1": "1746 W Chicago Ave", "address2": "", "address3": "", "city": "Chicago", "zip_code": "60622", "country": "US", "state": "IL", "display_address": ["1746 W Chicago Ave", "Chicago, IL 60622"]}, "Phone": "+13129292202", "url": "https://www.yelp.com/biz/forbidden-root-chicago?adjust_creative=9wzLCQb4DKw6lnyMeALrVw&utm_campaign=yelp_api_v3&utm_medium=api_v3_business_search&utm_source=9wzLCQb4DKw6lnyMeALrVw"}, {"name": "Little Bad Wolf", "ReviewCount": 1916, "Categories": [{"alias": "tradamerican", "title": "American (Traditional)"}, {"alias": "beerbar", "title": "Beer Bar"}, {"alias": "cocktailbars", "title": "Cocktail Bars"}], "Rating": 4.5, "Lat": 41.983356, "Long": -87.669057, "Address": "1541 W Bryn Mawr Ave", "City": "Chicago", "Location": {"address1": "1541 W Bryn Mawr Ave", "address2": "", "address3": "", "city": "Chicago", "zip_code": "60660", "country": "US", "state": "IL", "display_address": ["1541 W Bryn Mawr Ave", "Chicago, IL 60660"]}, "Phone": "+17739426399", "url": "https://www.yelp.com/biz/little-bad-wolf-chicago?adjust_creative=9wzLCQb4DKw6lnyMeALrVw&utm_campaign=yelp_api_v3&utm_medium=api_v3_business_search&utm_source=9wzLCQb4DKw6lnyMeALrVw"}, {"name": "The Whale Chicago", "ReviewCount": 799, "Categories": [{"alias": "newamerican", "title": "American (New)"}], "Rating": 4.0, "Lat": 41.92555, "Long": -87.70112, "Address": "2427 N Milwaukee Ave", "City": "Chicago", "Location": {"address1": "2427 N Milwaukee Ave", "address2": "", "address3": null, "city": "Chicago", "zip_code": "60647", "country": "US", "state": "IL", "display_address": ["2427 N Milwaukee Ave", "Chicago, IL 60647"]}, "Phone": "+17738252900", "url": "https://www.yelp.com/biz/the-whale-chicago-chicago?adjust_creative=9wzLCQb4DKw6lnyMeALrVw&utm_campaign=yelp_api_v3&utm_medium=api_v3_business_search&utm_source=9wzLCQb4DKw6lnyMeALrVw"}, {"name": "Easy Does It", "ReviewCount": 7, "Categories": [{"alias": "bars", "title": "Bars"}], "Rating": 5.0, "Lat": 41.923969, "Long": -87.699437, "Address": "2354 N Milwaukee Ave", "City": "Chicago", "Location": {"address1": "2354 N Milwaukee Ave", "address2": "", "address3": null, "city": "Chicago", "zip_code": "60647", "country": "US", "state": "IL", "display_address": ["2354 N Milwaukee Ave", "Chicago, IL 60647"]}, "Phone": "+17734209463", "url": "https://www.yelp.com/biz/easy-does-it-chicago?adjust_creative=9wzLCQb4DKw6lnyMeALrVw&utm_campaign=yelp_api_v3&utm_medium=api_v3_business_search&utm_source=9wzLCQb4DKw6lnyMeALrVw"}, {"name": "etta - Bucktown", "ReviewCount": 933, "Categories": [{"alias": "pizza", "title": "Pizza"}, {"alias": "newamerican", "title": "American (New)"}, {"alias": "breakfast_brunch", "title": "Breakfast & Brunch"}], "Rating": 4.5, "Lat": 41.91073, "Long": -87.67417, "Address": "1840 W North Ave", "City": "Chicago", "Location": {"address1": "1840 W North Ave", "address2": null, "address3": "", "city": "Chicago", "zip_code": "60622", "country": "US", "state": "IL", "display_address": ["1840 W North Ave", "Chicago, IL 60622"]}, "Phone": "+13127574444", "url": "https://www.yelp.com/biz/etta-bucktown-chicago?adjust_creative=9wzLCQb4DKw6lnyMeALrVw&utm_campaign=yelp_api_v3&utm_medium=api_v3_business_search&utm_source=9wzLCQb4DKw6lnyMeALrVw"}, {"name": "The Leavitt Street Inn & Tavern", "ReviewCount": 41, "Categories": [{"alias": "bedbreakfast", "title": "Bed & Breakfast"}, {"alias": "beerbar", "title": "Beer Bar"}], "Rating": 5.0, "Lat": 41.924083, "Long": -87.682524, "Address": "2345 N Leavitt St", "City": "Chicago", "Location": {"address1": "2345 N Leavitt St", "address2": "", "address3": null, "city": "Chicago", "zip_code": "60647", "country": "US", "state": "IL", "display_address": ["2345 N Leavitt St", "Chicago, IL 60647"]}, "Phone": "+17736619639", "url": "https://www.yelp.com/biz/the-leavitt-street-inn-and-tavern-chicago?adjust_creative=9wzLCQb4DKw6lnyMeALrVw&utm_campaign=yelp_api_v3&utm_medium=api_v3_business_search&utm_source=9wzLCQb4DKw6lnyMeALrVw"}, {"name": "Pleasant House Pub", "ReviewCount": 888, "Categories": [{"alias": "british", "title": "British"}, {"alias": "pubs", "title": "Pubs"}, {"alias": "breakfast_brunch", "title": "Breakfast & Brunch"}], "Rating": 4.5, "Lat": 41.85357, "Long": -87.64621, "Address": "2119 S Halsted St", "City": "Chicago", "Location": {"address1": "2119 S Halsted St", "address2": "", "address3": null, "city": "Chicago", "zip_code": "60608", "country": "US", "state": "IL", "display_address": ["2119 S Halsted St", "Chicago, IL 60608"]}, "Phone": "+17735237437", "url": "https://www.yelp.com/biz/pleasant-house-pub-chicago-3?adjust_creative=9wzLCQb4DKw6lnyMeALrVw&utm_campaign=yelp_api_v3&utm_medium=api_v3_business_search&utm_source=9wzLCQb4DKw6lnyMeALrVw"}, {"name": "Gretel", "ReviewCount": 149, "Categories": [{"alias": "beer_and_wine", "title": "Beer, Wine & Spirits"}, {"alias": "cocktailbars", "title": "Cocktail Bars"}], "Rating": 4.5, "Lat": 41.917275, "Long": -87.698577, "Address": "2833 W Armitage Ave", "City": "Chicago", "Location": {"address1": "2833 W Armitage Ave", "address2": "", "address3": null, "city": "Chicago", "zip_code": "60647", "country": "US", "state": "IL", "display_address": ["2833 W Armitage Ave", "Chicago, IL 60647"]}, "Phone": "+17737703427", "url": "https://www.yelp.com/biz/gretel-chicago?adjust_creative=9wzLCQb4DKw6lnyMeALrVw&utm_campaign=yelp_api_v3&utm_medium=api_v3_business_search&utm_source=9wzLCQb4DKw6lnyMeALrVw"}, {"name": "Au Cheval", "ReviewCount": 8071, "Categories": [{"alias": "bars", "title": "Bars"}, {"alias": "tradamerican", "title": "American (Traditional)"}], "Rating": 4.5, "Lat": 41.88466, "Long": -87.647668, "Address": "800 W Randolph St", "City": "Chicago", "Location": {"address1": "800 W Randolph St", "address2": "", "address3": "", "city": "Chicago", "zip_code": "60607", "country": "US", "state": "IL", "display_address": ["800 W Randolph St", "Chicago, IL 60607"]}, "Phone": "+13129294580", "url": "https://www.yelp.com/biz/au-cheval-chicago?adjust_creative=9wzLCQb4DKw6lnyMeALrVw&utm_campaign=yelp_api_v3&utm_medium=api_v3_business_search&utm_source=9wzLCQb4DKw6lnyMeALrVw"}, {"name": "The Gage", "ReviewCount": 3244, "Categories": [{"alias": "newamerican", "title": "American (New)"}, {"alias": "cocktailbars", "title": "Cocktail Bars"}], "Rating": 4.0, "Lat": 41.881369, "Long": -87.624698, "Address": "24 S Michigan Ave", "City": "Chicago", "Location": {"address1": "24 S Michigan Ave", "address2": null, "address3": "", "city": "Chicago", "zip_code": "60603", "country": "US", "state": "IL", "display_address": ["24 S Michigan Ave", "Chicago, IL 60603"]}, "Phone": "+13123724243", "url": "https://www.yelp.com/biz/the-gage-chicago?adjust_creative=9wzLCQb4DKw6lnyMeALrVw&utm_campaign=yelp_api_v3&utm_medium=api_v3_business_search&utm_source=9wzLCQb4DKw6lnyMeALrVw"}, {"name": "Cultivate by Forbidden Root", "ReviewCount": 62, "Categories": [{"alias": "breweries", "title": "Breweries"}], "Rating": 4.5, "Lat": 41.9674226, "Long": -87.6751036, "Address": "4710 N Ravenswood Ave", "City": "Chicago", "Location": {"address1": "4710 N Ravenswood Ave", "address2": null, "address3": "", "city": "Chicago", "zip_code": "60640", "country": "US", "state": "IL", "display_address": ["4710 N Ravenswood Ave", "Chicago, IL 60640"]}, "Phone": "", "url": "https://www.yelp.com/biz/cultivate-by-forbidden-root-chicago?adjust_creative=9wzLCQb4DKw6lnyMeALrVw&utm_campaign=yelp_api_v3&utm_medium=api_v3_business_search&utm_source=9wzLCQb4DKw6lnyMeALrVw"}, {"name": "Lucy's", "ReviewCount": 240, "Categories": [{"alias": "tradamerican", "title": "American (Traditional)"}], "Rating": 4.0, "Lat": 41.90055, "Long": -87.69642, "Address": "1043 N California Ave", "City": "Chicago", "Location": {"address1": "1043 N California Ave", "address2": "", "address3": null, "city": "Chicago", "zip_code": "60622", "country": "US", "state": "IL", "display_address": ["1043 N California Ave", "Chicago, IL 60622"]}, "Phone": "+13126758385", "url": "https://www.yelp.com/biz/lucys-chicago?adjust_creative=9wzLCQb4DKw6lnyMeALrVw&utm_campaign=yelp_api_v3&utm_medium=api_v3_business_search&utm_source=9wzLCQb4DKw6lnyMeALrVw"}, {"name": "Longman & Eagle", "ReviewCount": 2515, "Categories": [{"alias": "gastropubs", "title": "Gastropubs"}, {"alias": "whiskeybars", "title": "Whiskey Bars"}], "Rating": 4.0, "Lat": 41.930156679293, "Long": -87.707222394898, "Address": "2657 N Kedzie Ave", "City": "Chicago", "Location": {"address1": "2657 N Kedzie Ave", "address2": "", "address3": "", "city": "Chicago", "zip_code": "60647", "country": "US", "state": "IL", "display_address": ["2657 N Kedzie Ave", "Chicago, IL 60647"]}, "Phone": "+17732767110", "url": "https://www.yelp.com/biz/longman-and-eagle-chicago?adjust_creative=9wzLCQb4DKw6lnyMeALrVw&utm_campaign=yelp_api_v3&utm_medium=api_v3_business_search&utm_source=9wzLCQb4DKw6lnyMeALrVw"}, {"name": "The Smith", "ReviewCount": 448, "Categories": [{"alias": "newamerican", "title": "American (New)"}], "Rating": 4.0, "Lat": 41.88935, "Long": -87.6314, "Address": "400 N Clark St", "City": "Chicago", "Location": {"address1": "400 N Clark St", "address2": null, "address3": "", "city": "Chicago", "zip_code": "60654", "country": "US", "state": "IL", "display_address": ["400 N Clark St", "Chicago, IL 60654"]}, "Phone": "+13123125100", "url": "https://www.yelp.com/biz/the-smith-chicago?adjust_creative=9wzLCQb4DKw6lnyMeALrVw&utm_campaign=yelp_api_v3&utm_medium=api_v3_business_search&utm_source=9wzLCQb4DKw6lnyMeALrVw"}, {"name": "Mable's Table", "ReviewCount": 354, "Categories": [{"alias": "newamerican", "title": "American (New)"}, {"alias": "steak", "title": "Steakhouses"}], "Rating": 4.5, "Lat": 41.915987, "Long": -87.669824, "Address": "1655 W Cortland St", "City": "Chicago", "Location": {"address1": "1655 W Cortland St", "address2": "", "address3": null, "city": "Chicago", "zip_code": "60622", "country": "US", "state": "IL", "display_address": ["1655 W Cortland St", "Chicago, IL 60622"]}, "Phone": "+17739047433", "url": "https://www.yelp.com/biz/mables-table-chicago?adjust_creative=9wzLCQb4DKw6lnyMeALrVw&utm_campaign=yelp_api_v3&utm_medium=api_v3_business_search&utm_source=9wzLCQb4DKw6lnyMeALrVw"}, {"name": "Jake Melnick's Corner Tap", "ReviewCount": 1456, "Categories": [{"alias": "sportsbars", "title": "Sports Bars"}, {"alias": "bbq", "title": "Barbeque"}, {"alias": "chicken_wings", "title": "Chicken Wings"}], "Rating": 4.0, "Lat": 41.8955265, "Long": -87.626528, "Address": "41 E Superior St", "City": "Chicago", "Location": {"address1": "41 E Superior St", "address2": "", "address3": "", "city": "Chicago", "zip_code": "60611", "country": "US", "state": "IL", "display_address": ["41 E Superior St", "Chicago, IL 60611"]}, "Phone": "+13122660400", "url": "https://www.yelp.com/biz/jake-melnicks-corner-tap-chicago-2?adjust_creative=9wzLCQb4DKw6lnyMeALrVw&utm_campaign=yelp_api_v3&utm_medium=api_v3_business_search&utm_source=9wzLCQb4DKw6lnyMeALrVw"}, {"name": "LIVA at Chicago Winery", "ReviewCount": 8, "Categories": [{"alias": "wine_bars", "title": "Wine Bars"}, {"alias": "cocktailbars", "title": "Cocktail Bars"}, {"alias": "newamerican", "title": "American (New)"}], "Rating": 4.5, "Lat": 41.89600515141419, "Long": -87.63090059999999, "Address": "739 N Clark St", "City": "Chicago", "Location": {"address1": "739 N Clark St", "address2": null, "address3": "Chicago Winery", "city": "Chicago", "zip_code": "60654", "country": "US", "state": "IL", "display_address": ["739 N Clark St", "Chicago Winery", "Chicago, IL 60654"]}, "Phone": "+13127633674", "url": "https://www.yelp.com/biz/liva-at-chicago-winery-chicago-3?adjust_creative=9wzLCQb4DKw6lnyMeALrVw&utm_campaign=yelp_api_v3&utm_medium=api_v3_business_search&utm_source=9wzLCQb4DKw6lnyMeALrVw"}, {"name": "River Roast", "ReviewCount": 1110, "Categories": [{"alias": "tradamerican", "title": "American (Traditional)"}, {"alias": "cocktailbars", "title": "Cocktail Bars"}, {"alias": "venues", "title": "Venues & Event Spaces"}], "Rating": 4.0, "Lat": 41.887957929885, "Long": -87.6321899243637, "Address": "315 N La Salle Dr", "City": "Chicago", "Location": {"address1": "315 N La Salle Dr", "address2": "", "address3": "", "city": "Chicago", "zip_code": "60654", "country": "US", "state": "IL", "display_address": ["315 N La Salle Dr", "Chicago, IL 60654"]}, "Phone": "+13128220100", "url": "https://www.yelp.com/biz/river-roast-chicago-3?adjust_creative=9wzLCQb4DKw6lnyMeALrVw&utm_campaign=yelp_api_v3&utm_medium=api_v3_business_search&utm_source=9wzLCQb4DKw6lnyMeALrVw"}, {"name": "Doc B's Restaurant + Bar", "ReviewCount": 1013, "Categories": [{"alias": "newamerican", "title": "American (New)"}, {"alias": "bars", "title": "Bars"}], "Rating": 4.5, "Lat": 41.891591, "Long": -87.626302, "Address": "55 E Grand Ave", "City": "Chicago", "Location": {"address1": "55 E Grand Ave", "address2": "", "address3": "", "city": "Chicago", "zip_code": "60611", "country": "US", "state": "IL", "display_address": ["55 E Grand Ave", "Chicago, IL 60611"]}, "Phone": "+13129999300", "url": "https://www.yelp.com/biz/doc-bs-restaurant-bar-chicago-4?adjust_creative=9wzLCQb4DKw6lnyMeALrVw&utm_campaign=yelp_api_v3&utm_medium=api_v3_business_search&utm_source=9wzLCQb4DKw6lnyMeALrVw"}, {"name": "Revolution Brewing", "ReviewCount": 2175, "Categories": [{"alias": "breweries", "title": "Breweries"}, {"alias": "newamerican", "title": "American (New)"}, {"alias": "bars", "title": "Bars"}], "Rating": 4.0, "Lat": 41.92353, "Long": -87.698153, "Address": "2323 N Milwaukee Ave", "City": "Chicago", "Location": {"address1": "2323 N Milwaukee Ave", "address2": "", "address3": "", "city": "Chicago", "zip_code": "60647", "country": "US", "state": "IL", "display_address": ["2323 N Milwaukee Ave", "Chicago, IL 60647"]}, "Phone": "+17732272739", "url": "https://www.yelp.com/biz/revolution-brewing-chicago?adjust_creative=9wzLCQb4DKw6lnyMeALrVw&utm_campaign=yelp_api_v3&utm_medium=api_v3_business_search&utm_source=9wzLCQb4DKw6lnyMeALrVw"}, {"name": "The VIG Chicago", "ReviewCount": 707, "Categories": [{"alias": "tradamerican", "title": "American (Traditional)"}, {"alias": "cocktailbars", "title": "Cocktail Bars"}], "Rating": 4.0, "Lat": 41.9099251, "Long": -87.6345035, "Address": "1527 N Wells St", "City": "Chicago", "Location": {"address1": "1527 N Wells St", "address2": null, "address3": null, "city": "Chicago", "zip_code": "60610", "country": "US", "state": "IL", "display_address": ["1527 N Wells St", "Chicago, IL 60610"]}, "Phone": "+13129822186", "url": "https://www.yelp.com/biz/the-vig-chicago-chicago-2?adjust_creative=9wzLCQb4DKw6lnyMeALrVw&utm_campaign=yelp_api_v3&utm_medium=api_v3_business_search&utm_source=9wzLCQb4DKw6lnyMeALrVw"}, {"name": "Scofflaw", "ReviewCount": 803, "Categories": [{"alias": "newamerican", "title": "American (New)"}, {"alias": "cocktailbars", "title": "Cocktail Bars"}], "Rating": 4.5, "Lat": 41.9173240661621, "Long": -87.7071762084961, "Address": "3201 W Armitage Ave", "City": "Chicago", "Location": {"address1": "3201 W Armitage Ave", "address2": "", "address3": "", "city": "Chicago", "zip_code": "60647", "country": "US", "state": "IL", "display_address": ["3201 W Armitage Ave", "Chicago, IL 60647"]}, "Phone": "+17732529700", "url": "https://www.yelp.com/biz/scofflaw-chicago?adjust_creative=9wzLCQb4DKw6lnyMeALrVw&utm_campaign=yelp_api_v3&utm_medium=api_v3_business_search&utm_source=9wzLCQb4DKw6lnyMeALrVw"}, {"name": "SafeHouse Chicago", "ReviewCount": 1393, "Categories": [{"alias": "burgers", "title": "Burgers"}, {"alias": "cocktailbars", "title": "Cocktail Bars"}, {"alias": "eatertainment", "title": "Eatertainment"}], "Rating": 4.0, "Lat": 41.89341869236148, "Long": -87.62581668834156, "Address": "60 E Ontario St", "City": "Chicago", "Location": {"address1": "60 E Ontario St", "address2": null, "address3": null, "city": "Chicago", "zip_code": "60611", "country": "US", "state": "IL", "display_address": ["60 E Ontario St", "Chicago, IL 60611"]}, "Phone": "+13123131007", "url": "https://www.yelp.com/biz/safehouse-chicago-chicago-2?adjust_creative=9wzLCQb4DKw6lnyMeALrVw&utm_campaign=yelp_api_v3&utm_medium=api_v3_business_search&utm_source=9wzLCQb4DKw6lnyMeALrVw"}, {"name": "The Delta", "ReviewCount": 413, "Categories": [{"alias": "southern", "title": "Southern"}, {"alias": "cocktailbars", "title": "Cocktail Bars"}, {"alias": "breakfast_brunch", "title": "Breakfast & Brunch"}], "Rating": 4.5, "Lat": 41.91032, "Long": -87.67186, "Address": "1745 W North Ave", "City": "Chicago", "Location": {"address1": "1745 W North Ave", "address2": "", "address3": null, "city": "Chicago", "zip_code": "60622", "country": "US", "state": "IL", "display_address": ["1745 W North Ave", "Chicago, IL 60622"]}, "Phone": "+17733601793", "url": "https://www.yelp.com/biz/the-delta-chicago?adjust_creative=9wzLCQb4DKw6lnyMeALrVw&utm_campaign=yelp_api_v3&utm_medium=api_v3_business_search&utm_source=9wzLCQb4DKw6lnyMeALrVw"}, {"name": "Giant", "ReviewCount": 577, "Categories": [{"alias": "newamerican", "title": "American (New)"}, {"alias": "beerbar", "title": "Beer Bar"}, {"alias": "wine_bars", "title": "Wine Bars"}], "Rating": 4.5, "Lat": 41.9171, "Long": -87.70746, "Address": "3209 W Armitage Ave", "City": "Chicago", "Location": {"address1": "3209 W Armitage Ave", "address2": "", "address3": null, "city": "Chicago", "zip_code": "60647", "country": "US", "state": "IL", "display_address": ["3209 W Armitage Ave", "Chicago, IL 60647"]}, "Phone": "+17732520997", "url": "https://www.yelp.com/biz/giant-chicago-2?adjust_creative=9wzLCQb4DKw6lnyMeALrVw&utm_campaign=yelp_api_v3&utm_medium=api_v3_business_search&utm_source=9wzLCQb4DKw6lnyMeALrVw"}, {"name": "Dove's Luncheonette", "ReviewCount": 711, "Categories": [{"alias": "southern", "title": "Southern"}, {"alias": "tex-mex", "title": "Tex-Mex"}, {"alias": "breakfast_brunch", "title": "Breakfast & Brunch"}], "Rating": 4.0, "Lat": 41.909487, "Long": -87.677293, "Address": "1545 N Damen Ave", "City": "Chicago", "Location": {"address1": "1545 N Damen Ave", "address2": "", "address3": "", "city": "Chicago", "zip_code": "60622", "country": "US", "state": "IL", "display_address": ["1545 N Damen Ave", "Chicago, IL 60622"]}, "Phone": "+17736454060", "url": "https://www.yelp.com/biz/doves-luncheonette-chicago?adjust_creative=9wzLCQb4DKw6lnyMeALrVw&utm_campaign=yelp_api_v3&utm_medium=api_v3_business_search&utm_source=9wzLCQb4DKw6lnyMeALrVw"}, {"name": "Penumbra", "ReviewCount": 753, "Categories": [{"alias": "wine_bars", "title": "Wine Bars"}, {"alias": "seafood", "title": "Seafood"}, {"alias": "steak", "title": "Steakhouses"}], "Rating": 5.0, "Lat": 41.92445, "Long": -87.710933, "Address": "3309 W Fullerton Ave", "City": "Chicago", "Location": {"address1": "3309 W Fullerton Ave", "address2": null, "address3": "", "city": "Chicago", "zip_code": "60647", "country": "US", "state": "IL", "display_address": ["3309 W Fullerton Ave", "Chicago, IL 60647"]}, "Phone": "+17737722343", "url": "https://www.yelp.com/biz/penumbra-chicago?adjust_creative=9wzLCQb4DKw6lnyMeALrVw&utm_campaign=yelp_api_v3&utm_medium=api_v3_business_search&utm_source=9wzLCQb4DKw6lnyMeALrVw"}, {"name": "Remington's", "ReviewCount": 727, "Categories": [{"alias": "tradamerican", "title": "American (Traditional)"}, {"alias": "steak", "title": "Steakhouses"}, {"alias": "seafood", "title": "Seafood"}], "Rating": 4.0, "Lat": 41.88266, "Long": -87.62499, "Address": "20 N Michigan Ave", "City": "Chicago", "Location": {"address1": "20 N Michigan Ave", "address2": "", "address3": "", "city": "Chicago", "zip_code": "60602", "country": "US", "state": "IL", "display_address": ["20 N Michigan Ave", "Chicago, IL 60602"]}, "Phone": "+13127826000", "url": "https://www.yelp.com/biz/remingtons-chicago?adjust_creative=9wzLCQb4DKw6lnyMeALrVw&utm_campaign=yelp_api_v3&utm_medium=api_v3_business_search&utm_source=9wzLCQb4DKw6lnyMeALrVw"}, {"name": "Little Goat Diner", "ReviewCount": 4943, "Categories": [{"alias": "diners", "title": "Diners"}], "Rating": 4.0, "Lat": 41.8846460590586, "Long": -87.6484126982138, "Address": "820 W Randolph St", "City": "Chicago", "Location": {"address1": "820 W Randolph St", "address2": "", "address3": "", "city": "Chicago", "zip_code": "60607", "country": "US", "state": "IL", "display_address": ["820 W Randolph St", "Chicago, IL 60607"]}, "Phone": "+13128883455", "url": "https://www.yelp.com/biz/little-goat-diner-chicago-5?adjust_creative=9wzLCQb4DKw6lnyMeALrVw&utm_campaign=yelp_api_v3&utm_medium=api_v3_business_search&utm_source=9wzLCQb4DKw6lnyMeALrVw"}, {"name": "Bandol", "ReviewCount": 7, "Categories": [{"alias": "brasseries", "title": "Brasseries"}, {"alias": "seafood", "title": "Seafood"}, {"alias": "french", "title": "French"}], "Rating": 4.5, "Lat": 41.880895, "Long": -87.631107, "Address": "100 W Monroe", "City": "Chicago", "Location": {"address1": "100 W Monroe", "address2": null, "address3": "", "city": "Chicago", "zip_code": "60603", "country": "US", "state": "IL", "display_address": ["100 W Monroe", "Chicago, IL 60603"]}, "Phone": "+13128775713", "url": "https://www.yelp.com/biz/bandol-chicago?adjust_creative=9wzLCQb4DKw6lnyMeALrVw&utm_campaign=yelp_api_v3&utm_medium=api_v3_business_search&utm_source=9wzLCQb4DKw6lnyMeALrVw"}, {"name": "Split-Rail", "ReviewCount": 263, "Categories": [{"alias": "tradamerican", "title": "American (Traditional)"}, {"alias": "cocktailbars", "title": "Cocktail Bars"}, {"alias": "chicken_wings", "title": "Chicken Wings"}], "Rating": 4.5, "Lat": 41.8959276538074, "Long": -87.6895823702216, "Address": "2500 W Chicago Ave", "City": "Chicago", "Location": {"address1": "2500 W Chicago Ave", "address2": "", "address3": null, "city": "Chicago", "zip_code": "60622", "country": "US", "state": "IL", "display_address": ["2500 W Chicago Ave", "Chicago, IL 60622"]}, "Phone": "+17736974413", "url": "https://www.yelp.com/biz/split-rail-chicago?adjust_creative=9wzLCQb4DKw6lnyMeALrVw&utm_campaign=yelp_api_v3&utm_medium=api_v3_business_search&utm_source=9wzLCQb4DKw6lnyMeALrVw"}, {"name": "Beck's Chicago", "ReviewCount": 70, "Categories": [{"alias": "pubs", "title": "Pubs"}, {"alias": "tradamerican", "title": "American (Traditional)"}], "Rating": 4.5, "Lat": 41.92184, "Long": -87.66422, "Address": "2201 N Clybourn Ave", "City": "Chicago", "Location": {"address1": "2201 N Clybourn Ave", "address2": null, "address3": "", "city": "Chicago", "zip_code": "60614", "country": "US", "state": "IL", "display_address": ["2201 N Clybourn Ave", "Chicago, IL 60614"]}, "Phone": "+17736611573", "url": "https://www.yelp.com/biz/becks-chicago-chicago?adjust_creative=9wzLCQb4DKw6lnyMeALrVw&utm_campaign=yelp_api_v3&utm_medium=api_v3_business_search&utm_source=9wzLCQb4DKw6lnyMeALrVw"}, {"name": "Cindy's Rooftop", "ReviewCount": 2023, "Categories": [{"alias": "newamerican", "title": "American (New)"}, {"alias": "seafood", "title": "Seafood"}, {"alias": "breakfast_brunch", "title": "Breakfast & Brunch"}], "Rating": 4.0, "Lat": 41.8816894031196, "Long": -87.6250061730162, "Address": "12 S Michigan Ave", "City": "Chicago", "Location": {"address1": "12 S Michigan Ave", "address2": "", "address3": "", "city": "Chicago", "zip_code": "60603", "country": "US", "state": "IL", "display_address": ["12 S Michigan Ave", "Chicago, IL 60603"]}, "Phone": "+13127923502", "url": "https://www.yelp.com/biz/cindys-rooftop-chicago?adjust_creative=9wzLCQb4DKw6lnyMeALrVw&utm_campaign=yelp_api_v3&utm_medium=api_v3_business_search&utm_source=9wzLCQb4DKw6lnyMeALrVw"}, {"name": "Hide+Seek", "ReviewCount": 39, "Categories": [{"alias": "newamerican", "title": "American (New)"}], "Rating": 4.0, "Lat": 41.88466, "Long": -87.64899, "Address": "838 W Randolph St", "City": "Chicago", "Location": {"address1": "838 W Randolph St", "address2": "", "address3": null, "city": "Chicago", "zip_code": "60607", "country": "US", "state": "IL", "display_address": ["838 W Randolph St", "Chicago, IL 60607"]}, "Phone": "+13126808217", "url": "https://www.yelp.com/biz/hide-seek-chicago?adjust_creative=9wzLCQb4DKw6lnyMeALrVw&utm_campaign=yelp_api_v3&utm_medium=api_v3_business_search&utm_source=9wzLCQb4DKw6lnyMeALrVw"}, {"name": "CheSa\u2019s Bistro & Bar", "ReviewCount": 9, "Categories": [{"alias": "bars", "title": "Bars"}, {"alias": "gluten_free", "title": "Gluten-Free"}], "Rating": 5.0, "Lat": 41.945931, "Long": -87.709553, "Address": "3235 W Addison St", "City": "Chicago", "Location": {"address1": "3235 W Addison St", "address2": "Ste C", "address3": "", "city": "Chicago", "zip_code": "60618", "country": "US", "state": "IL", "display_address": ["3235 W Addison St", "Ste C", "Chicago, IL 60618"]}, "Phone": "+17737548523", "url": "https://www.yelp.com/biz/chesa-s-bistro-and-bar-chicago?adjust_creative=9wzLCQb4DKw6lnyMeALrVw&utm_campaign=yelp_api_v3&utm_medium=api_v3_business_search&utm_source=9wzLCQb4DKw6lnyMeALrVw"}, {"name": "Park Tavern", "ReviewCount": 288, "Categories": [{"alias": "newamerican", "title": "American (New)"}, {"alias": "gastropubs", "title": "Gastropubs"}, {"alias": "sportsbars", "title": "Sports Bars"}], "Rating": 3.5, "Lat": 41.8773, "Long": -87.66869, "Address": "1645 W Jackson Blvd", "City": "Chicago", "Location": {"address1": "1645 W Jackson Blvd", "address2": "", "address3": "", "city": "Chicago", "zip_code": "60612", "country": "US", "state": "IL", "display_address": ["1645 W Jackson Blvd", "Chicago, IL 60612"]}, "Phone": "+13128466338", "url": "https://www.yelp.com/biz/park-tavern-chicago?adjust_creative=9wzLCQb4DKw6lnyMeALrVw&utm_campaign=yelp_api_v3&utm_medium=api_v3_business_search&utm_source=9wzLCQb4DKw6lnyMeALrVw"}, {"name": "The Moonlighter", "ReviewCount": 232, "Categories": [{"alias": "burgers", "title": "Burgers"}, {"alias": "beerbar", "title": "Beer Bar"}, {"alias": "sportsbars", "title": "Sports Bars"}], "Rating": 4.0, "Lat": 41.91766, "Long": -87.70738, "Address": "3204 W Armitage Ave", "City": "Chicago", "Location": {"address1": "3204 W Armitage Ave", "address2": "", "address3": null, "city": "Chicago", "zip_code": "60647", "country": "US", "state": "IL", "display_address": ["3204 W Armitage Ave", "Chicago, IL 60647"]}, "Phone": "+17733608896", "url": "https://www.yelp.com/biz/the-moonlighter-chicago?adjust_creative=9wzLCQb4DKw6lnyMeALrVw&utm_campaign=yelp_api_v3&utm_medium=api_v3_business_search&utm_source=9wzLCQb4DKw6lnyMeALrVw"}, {"name": "The Purple Pig", "ReviewCount": 7929, "Categories": [{"alias": "tapasmallplates", "title": "Tapas/Small Plates"}, {"alias": "mediterranean", "title": "Mediterranean"}, {"alias": "newamerican", "title": "American (New)"}], "Rating": 4.0, "Lat": 41.890694, "Long": -87.624782, "Address": "444 N Michigan Ave", "City": "Chicago", "Location": {"address1": "444 N Michigan Ave", "address2": null, "address3": "", "city": "Chicago", "zip_code": "60611", "country": "US", "state": "IL", "display_address": ["444 N Michigan Ave", "Chicago, IL 60611"]}, "Phone": "+13124641744", "url": "https://www.yelp.com/biz/the-purple-pig-chicago?adjust_creative=9wzLCQb4DKw6lnyMeALrVw&utm_campaign=yelp_api_v3&utm_medium=api_v3_business_search&utm_source=9wzLCQb4DKw6lnyMeALrVw"}, {"name": "Grandma Annie's Pizza", "ReviewCount": 4, "Categories": [{"alias": "chicken_wings", "title": "Chicken Wings"}, {"alias": "pizza", "title": "Pizza"}, {"alias": "burgers", "title": "Burgers"}], "Rating": 4.0, "Lat": 41.91020893816355, "Long": -87.7245734, "Address": "3912 W North Ave", "City": "Chicago", "Location": {"address1": "3912 W North Ave", "address2": "", "address3": null, "city": "Chicago", "zip_code": "60647", "country": "US", "state": "IL", "display_address": ["3912 W North Ave", "Chicago, IL 60647"]}, "Phone": "+17732525599", "url": "https://www.yelp.com/biz/grandma-annies-pizza-chicago?adjust_creative=9wzLCQb4DKw6lnyMeALrVw&utm_campaign=yelp_api_v3&utm_medium=api_v3_business_search&utm_source=9wzLCQb4DKw6lnyMeALrVw"}, {"name": "Hangry's", "ReviewCount": 190, "Categories": [{"alias": "burgers", "title": "Burgers"}, {"alias": "chicken_wings", "title": "Chicken Wings"}], "Rating": 4.5, "Lat": 41.92448, "Long": -87.75144, "Address": "5000 W Fullerton", "City": "Chicago", "Location": {"address1": "5000 W Fullerton", "address2": null, "address3": "", "city": "Chicago", "zip_code": "60639", "country": "US", "state": "IL", "display_address": ["5000 W Fullerton", "Chicago, IL 60639"]}, "Phone": "+17736374668", "url": "https://www.yelp.com/biz/hangrys-chicago?adjust_creative=9wzLCQb4DKw6lnyMeALrVw&utm_campaign=yelp_api_v3&utm_medium=api_v3_business_search&utm_source=9wzLCQb4DKw6lnyMeALrVw"}, {"name": "Dorothy's Bistro", "ReviewCount": 134, "Categories": [{"alias": "newamerican", "title": "American (New)"}], "Rating": 4.0, "Lat": 41.924780667420706, "Long": -87.71558330114615, "Address": "3524 W Fullerton Ave", "City": "Chicago", "Location": {"address1": "3524 W Fullerton Ave", "address2": "", "address3": null, "city": "Chicago", "zip_code": "60647", "country": "US", "state": "IL", "display_address": ["3524 W Fullerton Ave", "Chicago, IL 60647"]}, "Phone": "+17739047152", "url": "https://www.yelp.com/biz/dorothys-bistro-chicago?adjust_creative=9wzLCQb4DKw6lnyMeALrVw&utm_campaign=yelp_api_v3&utm_medium=api_v3_business_search&utm_source=9wzLCQb4DKw6lnyMeALrVw"}, {"name": "Beatrix - Streeterville", "ReviewCount": 1136, "Categories": [{"alias": "newamerican", "title": "American (New)"}, {"alias": "diners", "title": "Diners"}, {"alias": "coffee", "title": "Coffee & Tea"}], "Rating": 4.5, "Lat": 41.89439, "Long": -87.62261, "Address": "671 N St Clair St", "City": "Chicago", "Location": {"address1": "671 N St Clair St", "address2": "", "address3": "", "city": "Chicago", "zip_code": "60611", "country": "US", "state": "IL", "display_address": ["671 N St Clair St", "Chicago, IL 60611"]}, "Phone": "+13126420001", "url": "https://www.yelp.com/biz/beatrix-streeterville-chicago-2?adjust_creative=9wzLCQb4DKw6lnyMeALrVw&utm_campaign=yelp_api_v3&utm_medium=api_v3_business_search&utm_source=9wzLCQb4DKw6lnyMeALrVw"}, {"name": "Bluebird", "ReviewCount": 347, "Categories": [{"alias": "sandwiches", "title": "Sandwiches"}, {"alias": "burgers", "title": "Burgers"}, {"alias": "salad", "title": "Salad"}], "Rating": 4.5, "Lat": 41.934417, "Long": -87.646039, "Address": "2863 N Clark St", "City": "Chicago", "Location": {"address1": "2863 N Clark St", "address2": null, "address3": "", "city": "Chicago", "zip_code": "60657", "country": "US", "state": "IL", "display_address": ["2863 N Clark St", "Chicago, IL 60657"]}, "Phone": "+17736611531", "url": "https://www.yelp.com/biz/bluebird-chicago?adjust_creative=9wzLCQb4DKw6lnyMeALrVw&utm_campaign=yelp_api_v3&utm_medium=api_v3_business_search&utm_source=9wzLCQb4DKw6lnyMeALrVw"}, {"name": "Theory", "ReviewCount": 878, "Categories": [{"alias": "sportsbars", "title": "Sports Bars"}, {"alias": "tacos", "title": "Tacos"}, {"alias": "sandwiches", "title": "Sandwiches"}], "Rating": 4.0, "Lat": 41.88992694398672, "Long": -87.6285441, "Address": "9 W Hubbard St", "City": "Chicago", "Location": {"address1": "9 W Hubbard St", "address2": "Fl 1", "address3": "", "city": "Chicago", "zip_code": "60654", "country": "US", "state": "IL", "display_address": ["9 W Hubbard St", "Fl 1", "Chicago, IL 60654"]}, "Phone": "+13126440004", "url": "https://www.yelp.com/biz/theory-chicago-2?adjust_creative=9wzLCQb4DKw6lnyMeALrVw&utm_campaign=yelp_api_v3&utm_medium=api_v3_business_search&utm_source=9wzLCQb4DKw6lnyMeALrVw"}, {"name": "Kasama", "ReviewCount": 370, "Categories": [{"alias": "filipino", "title": "Filipino"}, {"alias": "bakeries", "title": "Bakeries"}, {"alias": "newamerican", "title": "American (New)"}], "Rating": 4.5, "Lat": 41.899701, "Long": -87.675589, "Address": "1001 N Winchester Ave", "City": "Chicago", "Location": {"address1": "1001 N Winchester Ave", "address2": null, "address3": null, "city": "Chicago", "zip_code": "60622", "country": "US", "state": "IL", "display_address": ["1001 N Winchester Ave", "Chicago, IL 60622"]}, "Phone": "+17736973790", "url": "https://www.yelp.com/biz/kasama-chicago?adjust_creative=9wzLCQb4DKw6lnyMeALrVw&utm_campaign=yelp_api_v3&utm_medium=api_v3_business_search&utm_source=9wzLCQb4DKw6lnyMeALrVw"}, {"name": "Butcher & The Burger", "ReviewCount": 1110, "Categories": [{"alias": "burgers", "title": "Burgers"}, {"alias": "breakfast_brunch", "title": "Breakfast & Brunch"}], "Rating": 4.0, "Lat": 41.91787, "Long": -87.65423, "Address": "1021 W Armitage Ave", "City": "Chicago", "Location": {"address1": "1021 W Armitage Ave", "address2": "", "address3": "", "city": "Chicago", "zip_code": "60614", "country": "US", "state": "IL", "display_address": ["1021 W Armitage Ave", "Chicago, IL 60614"]}, "Phone": "+17736973735", "url": "https://www.yelp.com/biz/butcher-and-the-burger-chicago?adjust_creative=9wzLCQb4DKw6lnyMeALrVw&utm_campaign=yelp_api_v3&utm_medium=api_v3_business_search&utm_source=9wzLCQb4DKw6lnyMeALrVw"}, {"name": "Lula Cafe", "ReviewCount": 2086, "Categories": [{"alias": "newamerican", "title": "American (New)"}, {"alias": "breakfast_brunch", "title": "Breakfast & Brunch"}, {"alias": "desserts", "title": "Desserts"}], "Rating": 4.5, "Lat": 41.927668036295, "Long": -87.706845233929, "Address": "2537 N Kedzie Blvd", "City": "Chicago", "Location": {"address1": "2537 N Kedzie Blvd", "address2": "", "address3": "", "city": "Chicago", "zip_code": "60647", "country": "US", "state": "IL", "display_address": ["2537 N Kedzie Blvd", "Chicago, IL 60647"]}, "Phone": "+17734899554", "url": "https://www.yelp.com/biz/lula-cafe-chicago-3?adjust_creative=9wzLCQb4DKw6lnyMeALrVw&utm_campaign=yelp_api_v3&utm_medium=api_v3_business_search&utm_source=9wzLCQb4DKw6lnyMeALrVw"}]